City_ID,City,Lat,Lng,Max Temp,Humidity,Cloudiness,Wind Speed,Country,Date
0,Khatanga,71.9667,102.5,-34.85,99,55,6.13,RU,1672119233
1,Flinders,-34.5833,150.8552,84.18,67,3,8.99,AU,1672119234
2,Harper,4.375,-7.7169,76.33,82,31,6.96,LR,1672119234
3,Busselton,-33.65,115.3333,75.58,36,2,16.02,AU,1672119235
4,Qaanaaq,77.484,-69.3632,-10.62,99,100,5.66,GL,1672119235
5,Mahébourg,-20.4081,57.7,83.25,83,75,9.22,MU,1672119236
6,Lebu,-37.6167,-73.65,56.7,86,61,14.74,CL,1672119236
7,Kolondiéba,11.0882,-6.8926,66.07,28,13,5.03,ML,1672119237
8,Bluff,-46.6,168.3333,56.48,71,28,15.68,NZ,1672119238
9,Albany,42.6001,-73.9662,24.03,65,100,4.14,US,1672119109
10,Taft,31.7471,54.2088,42.75,53,0,0.0,IR,1672119238
11,Kaitangata,-46.2817,169.8464,56.52,78,90,6.93,NZ,1672119239
12,Krasnosel'kup,65.7,82.4667,4.89,96,100,9.93,RU,1672119240
13,Bermeo,43.4209,-2.7215,54.48,88,71,4.05,ES,1672119240
14,Alyangula,-13.8483,136.4192,86.9,66,99,10.2,AU,1672119240
15,Umm Kaddadah,13.6017,26.6876,57.09,42,3,18.25,SD,1672119241
16,Cabo San Lucas,22.8909,-109.9124,70.52,73,0,4.61,MX,1672119019
17,Magadan,59.5667,150.8,7.86,74,17,8.61,RU,1672119242
18,Port Blair,11.6667,92.75,84.24,58,40,8.05,IN,1672119197
19,Rikitea,-23.1203,-134.9692,77.76,74,52,6.98,PF,1672119244
20,Poum,-20.2333,164.0167,76.62,89,100,15.93,NC,1672119245
21,Tromsø,69.6496,18.957,36.37,80,0,4.61,NO,1672119245
22,Hermanus,-34.4187,19.2345,67.64,76,8,5.03,ZA,1672119246
23,Lufilufi,-13.8745,-171.5986,87.58,74,9,9.78,WS,1672119246
24,Cape Town,-33.9258,18.4232,70.38,72,20,2.3,ZA,1672119002
25,Vaini,-21.2,-175.2,84.36,79,40,5.75,TO,1672119248
26,Ushuaia,-54.8,-68.3,40.66,81,100,19.57,AR,1672119104
27,Punta Arenas,-53.15,-70.9167,41.11,81,40,20.71,CL,1672119249
28,Kahului,20.8947,-156.47,76.84,75,0,12.66,US,1672119249
29,Dikson,73.5069,80.5464,-18.74,99,49,11.59,RU,1672119250
30,Goundam,16.4145,-3.6708,62.78,30,56,9.42,ML,1672119251
31,Padang,-0.9492,100.3543,86.05,65,100,6.02,ID,1672119252
32,Cabedelo,-6.9811,-34.8339,77.67,79,74,9.26,BR,1672119253
33,Kerrobert,51.9168,-109.1348,35.65,79,86,15.52,CA,1672119254
34,Karratha,-20.7377,116.8463,88.54,53,10,12.64,AU,1672119256
35,Varhaug,58.6147,5.6457,40.89,62,76,24.27,NO,1672119257
36,Cidreira,-30.1811,-50.2056,66.0,75,35,2.77,BR,1672119072
37,Bay Roberts,47.5999,-53.2648,31.33,82,73,3.0,CA,1672119258
38,Longyearbyen,78.2186,15.6401,15.03,85,98,6.02,SJ,1672119258
39,Kapaa,22.0752,-159.319,76.98,92,0,9.22,US,1672119259
40,Sabang,5.8933,95.3214,81.16,73,72,14.29,ID,1672119260
41,Erzin,36.9559,36.2,49.32,56,40,1.32,TR,1672119261
42,Norman Wells,65.282,-126.8329,-11.16,64,75,9.22,CA,1672119261
43,Burns Lake,54.2331,-125.7533,29.62,96,59,3.24,CA,1672119262
44,Hobart,-42.8794,147.3294,94.23,57,91,7.02,AU,1672119263
45,Yellowknife,62.456,-114.3525,-6.45,77,100,15.01,CA,1672119030
46,West Richland,46.3043,-119.3614,32.86,93,100,3.44,US,1672119265
47,Bredasdorp,-34.5322,20.0403,70.57,59,3,2.71,ZA,1672119254
48,Mana,5.6592,-53.7767,75.96,86,78,10.96,GF,1672119266
49,Noumea,-22.2763,166.4572,80.01,99,100,0.56,NC,1672119247
50,Saint-Joseph,-21.3667,55.6167,82.78,69,15,11.74,RE,1672119268
51,East London,-33.0153,27.9116,70.74,73,0,8.05,ZA,1672119268
52,Vardø,70.3705,31.1107,30.18,80,100,26.46,NO,1672119268
53,Guerrero Negro,27.9769,-114.0611,60.98,60,0,2.98,MX,1672119269
54,Murchison,-41.8,172.3333,64.45,91,68,2.08,NZ,1672119269
55,Barrow,71.2906,-156.7887,-7.58,71,0,19.57,US,1672119270
56,Shimoda,34.6667,138.95,53.96,73,95,3.11,JP,1672119270
57,Umba,66.6871,34.3429,18.97,80,100,10.98,RU,1672119271
58,New Norfolk,-42.7826,147.0587,93.88,24,79,4.0,AU,1672119272
59,Amberley,39.2048,-84.428,26.55,83,100,0.0,US,1672119272
60,Upernavik,72.7868,-56.1549,-8.95,79,90,8.03,GL,1672119155
61,Fortuna,40.5982,-124.1573,57.65,96,100,29.93,US,1672119273
62,Nemuro,43.3236,145.575,36.03,73,58,13.91,JP,1672119273
63,Hasaki,35.7333,140.8333,52.2,35,0,8.63,JP,1672119274
64,Grootfontein,-19.5667,18.1167,72.97,28,20,2.3,NA,1672119274
65,Arosa,46.7779,9.6762,28.29,99,82,3.49,CH,1672119275
66,Provideniya,64.3833,-173.3,5.86,64,1,15.1,RU,1672119275
67,Kungurtug,50.5994,97.5228,2.53,92,98,1.34,RU,1672119276
68,Zhigansk,66.7697,123.3711,-14.71,98,100,22.06,RU,1672119276
69,Castro,-24.7911,-50.0119,60.62,96,2,3.85,BR,1672119277
70,Pobé,6.9801,2.6649,68.04,62,8,2.04,BJ,1672119277
71,Saint George,37.1041,-113.5841,45.19,61,0,8.05,US,1672119239
72,Northam,51.0333,-4.2167,44.26,95,97,12.41,GB,1672119279
73,Surskoye,54.4821,46.7214,8.85,95,100,3.91,RU,1672119279
74,Thompson,55.7435,-97.8558,-14.64,76,40,0.0,CA,1672119183
75,Virginia Beach,36.8529,-75.978,30.02,70,97,6.49,US,1672119181
76,Lompoc,34.6391,-120.4579,54.59,93,75,9.22,US,1672119280
77,Tessalit,20.1986,1.0114,58.66,35,100,11.21,ML,1672119281
78,Mar del Plata,-38.0023,-57.5575,62.1,85,0,11.01,AR,1672119162
79,Shingū,33.7333,135.9833,51.44,45,0,2.98,JP,1672119185
80,Atuona,-9.8,-139.0333,78.24,75,91,16.46,PF,1672119282
81,Östersund,63.1792,14.6357,32.45,100,20,14.97,SE,1672119283
82,Hilo,19.7297,-155.09,77.29,87,40,1.01,US,1672119189
83,Avera,33.194,-82.5271,32.38,41,1,4.7,US,1672119284
84,Babstovo,48.1167,132.4833,11.7,94,100,3.76,RU,1672119284
85,Kuril'sk,45.2333,147.8833,33.57,86,98,14.81,RU,1672119286
86,Butaritari,3.0707,172.7902,81.61,80,52,14.99,KI,1672119286
87,Joshīmath,30.5667,79.5667,52.88,12,0,5.32,IN,1672119288
88,Los Llanos de Aridane,28.6585,-17.9182,65.12,67,20,10.0,ES,1672119289
89,Georgiyevka,43.0369,74.7114,39.24,45,0,8.95,KZ,1672119289
90,Esperance,-33.8667,121.9,66.61,60,42,24.45,AU,1672119290
91,Nome,64.5011,-165.4064,8.67,47,0,14.97,US,1672119290
92,Malakal,9.5334,31.6605,71.31,22,24,11.59,SS,1672119291
93,George Town,5.4112,100.3354,87.75,65,20,14.97,MY,1672119080
94,Yar-Sale,66.8333,70.8333,-7.71,99,82,3.67,RU,1672119292
95,Bahía Blanca,-38.7196,-62.2724,76.28,31,5,1.99,AR,1672119234
96,Mataura,-46.1927,168.8643,64.51,65,93,4.36,NZ,1672119292
97,Waliso,8.5333,37.9833,64.29,58,85,8.72,ET,1672119293
98,Saint Paul Harbor,57.79,-152.4072,36.91,81,100,16.11,US,1672119198
99,Khobi,42.3156,41.8987,46.54,91,100,4.9,GE,1672119295
100,Guider,9.9342,13.9486,66.33,29,0,4.81,CM,1672119295
101,Paceco,37.9787,12.5566,56.57,87,75,6.91,IT,1672119296
102,Senanga,-16.1167,23.2667,73.49,72,73,8.21,ZM,1672119296
103,Saskylakh,71.9167,114.0833,-35.93,100,26,3.69,RU,1672119297
104,Kavieng,-2.5744,150.7967,84.74,66,62,10.67,PG,1672119298
105,Carnarvon,-24.8667,113.6333,87.12,38,36,22.28,AU,1672119299
106,Torbay,47.6666,-52.7314,31.26,83,40,13.8,CA,1672119299
107,Cockburn Town,21.4612,-71.1419,78.8,75,7,22.41,TC,1672119300
108,Juneau,58.3019,-134.4197,35.1,97,100,10.36,US,1672119207
109,Severo-Kuril'sk,50.6789,156.125,30.81,79,61,19.17,RU,1672119301
110,Port Alfred,-33.5906,26.891,70.18,80,0,1.99,ZA,1672119301
111,Boundiali,9.5217,-6.4869,64.98,29,2,2.48,CI,1672119302
112,Vila do Maio,15.1333,-23.2167,66.99,65,88,11.56,CV,1672119302
113,Tiksi,71.6872,128.8694,-16.85,98,100,6.2,RU,1672119303
114,Kavaratti,10.5669,72.642,81.01,79,83,11.16,IN,1672119304
115,Malé,4.1748,73.5089,85.95,74,40,9.22,MV,1672119305
116,Bambous Virieux,-20.3428,57.7575,83.21,83,75,9.22,MU,1672119305
117,Mayahi,13.9553,7.6712,58.14,33,1,14.03,NE,1672119306
118,Cradock,-32.1642,25.6192,70.47,48,0,4.5,ZA,1672119307
119,Baykit,61.67,96.37,17.73,91,100,8.3,RU,1672119307
120,Puerto Ayora,-0.7393,-90.3518,72.55,94,65,1.99,EC,1672119308
121,Hualmay,-11.0964,-77.6139,69.01,83,99,5.59,PE,1672119308
122,Careiro da Várzea,-3.2003,-59.8119,75.83,97,100,2.59,BR,1672119309
123,Salalah,17.0151,54.0924,73.49,73,20,2.3,OM,1672119310
124,Harlingen,26.1906,-97.6961,54.9,90,0,0.0,US,1672119310
125,Kruisfontein,-34.0033,24.7314,76.84,42,0,5.48,ZA,1672119311
126,Loughborough,52.7667,-1.2,37.78,88,0,9.22,GB,1672119311
127,Westport,41.1415,-73.3579,29.32,55,75,6.91,US,1672119312
128,Petatlán,17.5167,-101.2667,70.92,74,0,4.18,MX,1672119313
129,Xinmin,41.9908,122.8253,20.57,37,6,11.03,CN,1672119313
130,Pūrna,19.1833,77.05,85.5,43,6,3.65,IN,1672119314
131,Laguna,38.421,-121.4238,54.97,92,100,13.8,US,1672119314
132,Helena,46.5927,-112.0361,36.59,87,100,3.44,US,1672119316
133,Arraial do Cabo,-22.9661,-42.0278,72.77,95,100,24.92,BR,1672119316
134,Nanortalik,60.1432,-45.2371,25.12,73,100,7.94,GL,1672119317
135,Witu,-2.3889,40.4382,82.56,64,32,7.05,KE,1672119318
136,Yulara,-25.2406,130.9889,100.78,19,95,12.03,AU,1672119318
137,Saldanha,-33.0117,17.9442,59.05,78,0,8.08,ZA,1672119319
138,Katsuura,35.1333,140.3,50.43,38,27,6.06,JP,1672119320
139,Hammerfest,70.6634,23.6821,36.05,75,0,13.8,NO,1672119320
140,Tsaratanana,-16.7833,47.65,78.55,71,97,4.72,MG,1672119321
141,Am Timan,11.0297,20.2827,65.44,25,2,8.97,TD,1672119322
142,Muswellbrook,-32.2667,150.9,90.32,22,0,14.38,AU,1672119322
143,Altamira,-3.2033,-52.2064,71.53,98,100,2.1,BR,1672119242
144,Quesnel,52.9999,-122.5029,23.5,93,75,0.0,CA,1672119323
145,Seoul,37.5683,126.9778,37.0,42,20,4.61,KR,1672119324
146,Along,28.1667,94.7667,54.34,95,100,1.07,IN,1672119325
147,George Town,5.4112,100.3354,87.75,65,20,14.97,MY,1672119080
148,Constitución,-35.3333,-72.4167,55.15,90,2,5.64,CL,1672119056
149,Avarua,-21.2078,-159.775,80.65,69,40,8.05,CK,1672119327
150,Laas,46.6166,10.7002,43.68,93,61,6.49,IT,1672119328
151,Maragogi,-9.0122,-35.2225,76.41,82,28,5.48,BR,1672119328
152,Hithadhoo,-0.6,73.0833,81.21,76,49,15.41,MV,1672119329
153,Ranot,7.7777,100.3213,80.35,63,99,11.48,TH,1672119329
154,Palmer,42.1584,-72.3287,27.25,61,100,4.61,US,1672119330
155,Nago,26.5881,127.9761,64.83,63,70,8.99,JP,1672119330
156,Callaway,30.153,-85.5699,42.91,52,0,6.91,US,1672119331
157,Port Elizabeth,-33.918,25.5701,70.32,79,0,9.22,ZA,1672119331
158,Portland,45.5234,-122.6762,57.56,94,100,18.41,US,1672119332
159,Lékoni,-1.5843,14.2591,75.06,72,82,1.39,GA,1672119333
160,Chui,-33.6971,-53.4616,55.78,81,0,2.35,UY,1672119333
161,‘Āhuimanu,21.4447,-157.8378,75.85,81,20,8.05,US,1672119334
162,Craig,40.5153,-107.5464,28.02,86,20,5.75,US,1672119260
163,Tigil',57.8,158.6667,-7.78,100,63,4.09,RU,1672119334
164,Carepa,7.7585,-76.6525,71.96,99,50,0.92,CO,1672119335
165,La Macarena,2.1837,-73.7849,69.08,67,81,2.68,CO,1672119336
166,Geraldton,-28.7667,114.6,81.01,47,1,24.16,AU,1672119311
167,Trelew,-43.249,-65.3051,60.51,64,100,15.7,AR,1672119289
168,Grindavik,63.8424,-22.4338,30.67,93,100,8.05,IS,1672119337
169,Tasiilaq,65.6145,-37.6368,8.76,56,18,5.64,GL,1672119338
170,Buala,-8.145,159.5921,82.0,80,100,6.29,SB,1672119338
171,Crestview,30.7621,-86.5705,41.29,81,0,1.99,US,1672119339
172,Oistins,13.0667,-59.5333,78.89,78,75,19.57,BB,1672119339
173,Ol'ga,43.7444,135.2892,27.25,76,6,2.95,RU,1672119340
174,Timmins,48.4669,-81.3331,3.02,85,100,3.44,CA,1672119302
175,Hofn,64.2539,-15.2082,22.93,66,100,9.64,IS,1672119340
176,Puerto Escondido,15.85,-97.0667,75.09,67,24,5.84,MX,1672119341
177,Tuymazy,54.6067,53.7097,17.17,96,100,6.06,RU,1672119341
178,Bethel,41.3712,-73.414,27.93,58,100,1.99,US,1672119342
179,Chokwé,-24.5333,32.9833,77.74,73,92,2.19,MZ,1672119342
180,Bengkulu,-3.8004,102.2655,84.25,62,94,7.11,ID,1672119343
181,Alora,36.8236,-4.7058,53.49,62,80,1.97,ES,1672119343
182,Chokurdakh,70.6333,147.9167,-30.08,100,97,3.58,RU,1672119344
183,Shakiso,5.75,38.9167,68.83,52,99,4.92,ET,1672119345
184,Hvittingfoss,59.4833,10.0167,36.01,52,78,11.99,NO,1672119345
185,Walvis Bay,-22.9575,14.5053,63.09,82,100,2.3,NA,1672119346
186,Nikolskoye,59.7035,30.7861,21.09,90,73,12.08,RU,1672119346
187,Mersing,2.4312,103.8405,85.91,66,40,10.36,MY,1672119347
188,Khovd,48.0056,91.6419,3.29,74,7,3.13,MN,1672119347
189,Talnakh,69.4865,88.3972,6.21,97,99,6.22,RU,1672119348
190,Baft,29.234,56.6057,40.33,65,3,7.67,IR,1672119349
191,Khasan,42.4308,130.6434,24.49,56,8,6.8,RU,1672119349
192,Lagoa,39.05,-27.9833,58.89,75,78,19.66,PT,1672119350
193,Sitka,57.0531,-135.33,42.69,81,100,8.05,US,1672119350
194,Poronaysk,49.2167,143.1167,18.75,90,63,7.29,RU,1672119351
195,Bo Rai,12.5728,102.5371,87.67,48,98,3.33,TH,1672119351
196,Nioro,13.35,-15.75,64.9,39,97,6.24,GM,1672119352
197,Chimbote,-9.0853,-78.5783,67.6,83,60,6.29,PE,1672119353
198,Chimoio,-19.1164,33.4833,71.1,70,21,3.18,MZ,1672119354
199,Granada,37.1882,-3.6067,35.96,93,0,0.0,ES,1672119355
200,Kidal,18.4411,1.4078,59.52,32,67,11.95,ML,1672119355
201,Ariquemes,-9.9133,-63.0408,70.56,94,42,2.17,BR,1672119283
202,Strezhevoy,60.7333,77.5889,4.89,96,58,7.63,RU,1672119356
203,Methóni,36.8197,21.7049,54.21,85,5,12.66,GR,1672119356
204,Domodossola,46.1165,8.2931,48.94,80,43,8.48,IT,1672119357
205,Cayenne,4.9333,-52.3333,75.24,94,100,5.75,GF,1672119358
206,San Patricio,28.017,-97.5169,49.84,48,0,7.11,US,1672119358
207,Ponta do Sol,32.6667,-17.1,68.63,81,50,13.35,PT,1672119359
208,Bontang,0.1333,117.5,85.17,69,100,9.28,ID,1672119359
209,Paamiut,61.994,-49.6678,22.55,95,100,11.9,GL,1672119360
210,Bathsheba,13.2167,-59.5167,79.41,78,75,19.57,BB,1672119360
211,Moindou,-21.6924,165.677,75.07,90,100,4.74,NC,1672119360
212,Kurumkan,54.3,110.3,0.63,91,56,0.51,RU,1672119361
213,City of San Pedro,14.35,121.0167,80.35,69,75,8.05,PH,1672119083
214,Faanui,-16.4833,-151.75,80.26,77,10,15.7,PF,1672119362
215,Tuktoyaktuk,69.4541,-133.0374,-23.8,76,0,8.05,CA,1672119363
216,Richards Bay,-28.783,32.0377,71.1,89,100,4.34,ZA,1672119130
217,Souillac,-20.5167,57.5167,79.18,83,75,9.22,MU,1672119364
218,Ostrovnoy,68.0531,39.5131,20.91,83,97,26.93,RU,1672119364
219,Biak,-0.9131,122.8766,83.71,66,97,1.45,ID,1672119365
220,Nelson Bay,-32.7167,152.15,80.65,83,0,18.01,AU,1672119365
221,San Ramon,37.7799,-121.978,55.62,93,100,10.36,US,1672119203
222,Kontagora,10.3999,5.4695,66.34,32,3,8.34,NG,1672119366
223,Bangui,4.3612,18.555,73.0,39,62,3.85,CF,1672119367
224,Hobyo,5.3505,48.5268,80.02,68,65,15.66,SO,1672119368
225,Maryville,35.7565,-83.9705,28.65,94,100,3.44,US,1672119368
226,Ahipara,-35.1667,173.1667,70.18,75,4,7.45,NZ,1672119152
227,Miahuatlán,18.5667,-97.4333,47.3,89,26,5.28,MX,1672119369
228,Manzanillo,20.3433,-77.1167,70.43,88,16,5.5,CU,1672119370
229,Labuhan,-6.8844,112.2051,82.17,75,100,15.43,ID,1672119371
230,Springbok,-29.6643,17.8865,66.78,24,0,2.3,ZA,1672119371
231,Sudak,44.85,34.9667,46.13,81,100,7.43,UA,1672119372
232,Vrangel',42.7297,133.0839,26.56,60,2,5.46,RU,1672119373
233,Tempe,33.4148,-111.9093,66.58,44,100,3.44,US,1672119374
234,Selçuk,37.9514,27.3685,52.02,58,0,4.45,TR,1672119374
235,Saint-Philippe,-21.3585,55.7679,83.79,72,24,11.74,RE,1672119375
236,Cherskiy,68.75,161.3,-13.97,99,100,4.97,RU,1672119376
237,Maués,-3.3836,-57.7186,71.73,98,100,1.9,BR,1672119376
238,Lorengau,-2.0226,147.2712,84.31,69,18,6.46,PG,1672119377
239,Alekseyevsk,57.8406,108.3492,-4.04,94,66,3.76,RU,1672119378
240,Kloulklubed,7.0419,134.2556,82.9,84,100,21.36,PW,1672119379
241,Ambon City,-3.6954,128.1814,80.74,78,40,5.75,ID,1672119379
242,Kumul,42.8,93.45,24.22,36,0,1.12,CN,1672119380
243,San Cristobal,7.7669,-72.225,64.58,70,77,2.06,VE,1672119381
244,Alginet,39.2667,-0.4667,54.48,77,39,3.4,ES,1672119243
245,San Jose,37.3394,-121.895,57.54,87,100,11.5,US,1672119383
246,Cap Malheureux,-19.9842,57.6142,83.46,60,14,10.0,MU,1672119384
247,São Filipe,14.8961,-24.4956,70.39,65,90,8.68,CV,1672119386
248,San Andrés,12.5847,-81.7006,80.62,78,20,8.05,CO,1672119388
249,Vestmannaeyjar,63.4427,-20.2734,35.94,61,100,18.07,IS,1672119388
250,Acapulco de Juárez,16.8634,-99.8901,76.82,83,40,3.44,MX,1672119376
251,Snåase,64.2457,12.3778,38.61,93,100,5.28,NO,1672119389
252,San Quintín,30.4833,-115.95,62.06,50,71,2.95,MX,1672119390
253,Clyde River,70.4692,-68.5914,-9.17,84,75,0.0,CA,1672119390
254,Paita,-5.0892,-81.1144,68.05,85,40,4.65,PE,1672119391
255,Chaihe,44.7667,129.7,6.1,90,81,3.91,CN,1672119391
256,Oranjestad,12.524,-70.027,78.91,82,20,16.11,AW,1672119260
257,Kungsbacka,57.4872,12.0761,39.18,84,50,20.0,SE,1672119392
258,Tourlaville,49.6383,-1.5664,45.82,93,100,10.36,FR,1672119393
259,Oranjemund,-28.55,16.4333,63.84,82,8,8.99,NA,1672119393
260,Maniitsoq,65.4167,-52.9,16.45,50,16,7.0,GL,1672119394
261,Rocky Mount,35.9382,-77.7905,25.38,74,0,0.0,US,1672119289
262,Peace River,56.2501,-117.286,-1.89,71,100,6.91,CA,1672119395
263,Kabanjahe,3.1001,98.4908,71.13,83,97,2.66,ID,1672119395
264,Ban Nahin,18.2418,104.2122,85.03,38,22,1.81,LA,1672119395
265,Cornélio Procópio,-23.1811,-50.6467,64.2,98,0,4.09,BR,1672119396
266,Rosamorada,22.1222,-105.2058,62.55,66,0,3.53,MX,1672119396
267,Praia,14.9215,-23.5087,66.74,72,20,8.05,CV,1672119397
268,Khandyga,62.6667,135.6,-45.81,100,78,1.79,RU,1672119397
269,Port Hardy,50.6996,-127.4199,46.58,81,75,18.41,CA,1672119398
270,Beaverlodge,55.2166,-119.4361,4.35,100,97,3.33,CA,1672119398
271,São João da Barra,-21.6403,-41.0511,73.62,91,100,11.27,BR,1672119399
272,Warrnambool,-38.3833,142.4833,91.92,30,3,11.16,AU,1672119341
273,Manado,1.487,124.8455,83.17,83,40,3.44,ID,1672119377
274,Houma,29.5958,-90.7195,46.4,77,65,0.56,US,1672119221
275,Verkhoyansk,67.5447,133.385,-31.45,99,65,1.23,RU,1672119401
276,Zverinogolovskoye,54.4586,64.8542,16.93,85,100,3.09,RU,1672119402
277,Vao,-22.6667,167.4833,75.0,91,100,18.86,NC,1672119402
278,Predivinsk,57.0669,93.4378,20.39,90,100,7.49,RU,1672119403
279,Takapau,-40.0333,176.35,65.73,71,6,6.98,NZ,1672119403
280,Sobolevo,54.4299,31.8996,28.8,97,100,10.96,RU,1672119404
281,Gushikawa,26.3544,127.8686,63.99,63,100,6.91,JP,1672119404
282,Moerai,-22.4333,-151.3333,75.97,72,63,4.63,PF,1672119405
283,Baruun-Urt,46.6806,113.2792,10.06,78,100,10.13,MN,1672119185
284,Agadez,19.75,10.25,54.18,47,0,8.99,NE,1672119406
285,Kenora,49.8167,-94.4337,5.97,72,75,11.5,CA,1672119406
286,Samarai,-10.6167,150.6667,81.39,80,100,8.46,PG,1672119408
287,Port Augusta,-32.5,137.7667,104.86,15,42,11.92,AU,1672119408
288,Katobu,-4.9408,122.5276,87.21,58,91,7.23,ID,1672119409
289,Phalodi,27.1333,72.3667,68.07,17,0,8.52,IN,1672119410
290,Hamilton,39.1834,-84.5333,27.23,86,100,0.0,US,1672119115
291,Hirānagar,32.45,75.2667,64.36,28,18,4.97,IN,1672119410
292,Quang Ngai,15.1167,108.8,75.06,68,76,8.68,VN,1672119411
293,Romodanovo,54.4275,45.3296,11.89,93,100,5.91,RU,1672119411
294,Jalu,29.0331,21.5482,53.92,68,0,5.23,LY,1672119412
295,Sidrolândia,-20.9319,-54.9614,71.58,72,7,2.84,BR,1672119413
296,Chicama,-7.8447,-79.1469,64.94,75,79,2.95,PE,1672119414
297,Sampit,-2.5333,112.95,84.74,67,100,5.23,ID,1672119415
298,Taebla,58.9547,23.7419,33.87,90,100,9.62,EE,1672119417
299,Santa Rosa,14.3122,121.1114,81.1,68,91,14.76,PH,1672119417
300,Manali,13.1667,80.2667,86.09,71,23,7.61,IN,1672119418
301,Kuching,1.55,110.3333,87.13,71,40,9.22,MY,1672119418
302,Pahrump,36.2083,-115.9839,52.95,43,82,7.23,US,1672119419
303,Husavik,66.0449,-17.3389,12.58,85,96,9.35,IS,1672119419
304,Stende,57.15,22.5333,34.88,84,90,11.65,LV,1672119420
305,Casas Grandes,30.3667,-107.95,44.01,42,0,4.74,MX,1672119420
306,Örnsköldsvik,63.2909,18.7153,31.15,100,100,12.66,SE,1672119421
307,Tazovsky,67.4667,78.7,4.98,96,100,5.64,RU,1672119422
308,Malartic,48.1335,-78.1328,1.51,97,100,4.99,CA,1672119422
309,Caceres,39.522,-6.3748,47.01,90,10,2.21,ES,1672119423
310,Palmital,-22.7889,-50.2175,67.5,96,0,5.1,BR,1672119424
311,Vila Velha,-20.3297,-40.2925,73.35,96,75,3.44,BR,1672119425
312,Zorritos,-3.6805,-80.6782,72.45,80,54,6.46,PE,1672119426
313,Ha Tinh,18.3333,105.9,69.08,82,94,3.36,VN,1672119128
314,San Matías,-16.3667,-58.4,74.82,85,74,3.38,BO,1672119427
315,Meulaboh,4.1363,96.1285,84.25,65,91,5.35,ID,1672119427
316,Iqaluit,63.7506,-68.5145,19.13,58,75,12.66,CA,1672119428
317,Chosica,-11.9431,-76.7094,62.83,83,100,2.21,PE,1672119428
318,Kautokeino,69.0125,23.0412,24.78,93,100,23.91,NO,1672119429
319,Chauk,20.8833,94.8167,81.59,31,0,4.36,MM,1672119429
320,Sechura,-5.5569,-80.8222,69.33,79,58,5.46,PE,1672119430
321,Touros,-5.1989,-35.4608,77.07,80,43,8.81,BR,1672119430
322,Ucluelet,48.9329,-125.5528,49.08,92,100,20.92,CA,1672119431
323,Sisimiut,66.9395,-53.6735,10.67,54,8,12.3,GL,1672119432
324,Karachi,24.9056,67.0822,67.82,40,0,9.22,PK,1672119304
325,Pergamino,-33.89,-60.5736,67.17,43,0,6.78,AR,1672119433
326,Kiryat Gat,31.61,34.7642,56.08,100,63,15.21,IL,1672119241
327,Korla,41.7597,86.1469,24.44,36,0,3.76,CN,1672119154
328,Ancud,-41.8697,-73.8203,45.25,82,8,5.48,CL,1672119436
329,Beaupré,47.0443,-70.8953,25.66,92,100,3.44,CA,1672119437
330,Kango,0.1943,10.0951,74.5,96,35,0.18,GA,1672119438
331,Nuuk,64.1835,-51.7216,11.43,66,41,8.34,GL,1672119439
332,São Miguel do Araguaia,-13.275,-50.1628,68.13,98,100,3.85,BR,1672119440
333,Cássia,-20.5831,-46.9219,65.89,97,100,2.44,BR,1672119441
334,Vega de Alatorre,20.0333,-96.6333,62.92,87,26,6.02,MX,1672119441
335,Kovylkino,54.0388,43.9139,19.42,95,100,8.5,RU,1672119442
336,Sinnamary,5.3833,-52.95,76.33,86,82,12.8,GF,1672119443
337,Hong Kong,22.2855,114.1577,70.97,62,22,10.0,HK,1672119357
338,Nagato,34.3833,131.2,50.76,60,65,6.46,JP,1672119445
339,Vertientes,21.2594,-78.1464,72.21,95,57,5.7,CU,1672119445
340,Bagdarin,54.4333,113.6,5.61,79,100,2.68,RU,1672119446
341,Belmonte,-15.8631,-38.8828,73.44,88,88,3.15,BR,1672119447
342,Aksha,50.2814,113.2867,12.11,78,100,10.89,RU,1672119448
343,Bilma,18.6853,12.9164,58.96,36,0,7.02,NE,1672119448
344,Pevek,69.7008,170.3133,-14.04,100,100,3.67,RU,1672119450
345,Teguise,29.0605,-13.564,68.22,56,100,26.46,ES,1672119451
346,Belaya Gora,68.5333,146.4167,-24.34,96,99,5.41,RU,1672119452
347,Campo Largo,-25.4586,-49.5283,67.53,97,61,3.36,BR,1672119453
348,Aksarka,66.5606,67.7975,1.26,93,96,4.43,RU,1672119453
349,Anaconda,46.1285,-112.9423,34.79,85,79,7.25,US,1672119454
350,Coquimbo,-29.9533,-71.3436,62.33,67,0,6.91,CL,1672119455
351,Port Macquarie,-31.4333,152.9167,79.9,63,0,8.9,AU,1672119456
352,Qiongshan,20.0058,110.3542,73.38,60,75,13.42,CN,1672119457
353,Kil,59.5072,13.314,33.69,86,16,8.05,SE,1672119457
354,Coyhaique,-45.5752,-72.0662,48.15,46,0,5.75,CL,1672119458
355,Pangai,-19.8,-174.35,84.31,70,75,6.91,TO,1672119458
356,Lata,40.1629,-8.3327,49.86,94,2,3.13,PT,1672119459
357,Yangi Marg`ilon,40.4272,71.7189,27.32,93,19,2.3,UZ,1672119460
358,Dubai,25.2582,55.3047,64.69,94,75,5.75,AE,1672119460
359,Rosarito,32.3333,-117.0333,66.67,52,100,2.46,MX,1672119314
360,Nouadhibou,20.931,-17.0347,62.58,82,71,5.75,MR,1672119461
361,Olafsvik,64.8945,-23.7142,25.0,87,100,18.25,IS,1672119462
362,Ilulissat,69.2167,-51.1,5.02,43,0,4.61,GL,1672119462
363,Thunder Bay,48.4001,-89.3168,12.18,48,100,9.22,CA,1672119463
364,Diego de Almagro,-26.3667,-70.05,57.52,66,0,2.57,CL,1672119464
365,Bataiporã,-22.2953,-53.2711,72.14,69,20,3.91,BR,1672119464
366,Doctor Juan Manuel Frutos,-25.3667,-55.8,70.75,66,28,3.83,PY,1672119464
367,Morondava,-20.2833,44.2833,81.3,56,1,1.7,MG,1672119465
368,Dingle,10.9995,122.6711,77.65,82,100,12.03,PH,1672119466
369,Punta de Bombón,-17.1717,-71.7931,70.63,85,100,7.65,PE,1672119467
370,Conceição da Barra,-18.5933,-39.7322,71.26,93,97,4.14,BR,1672119467
371,Nishihara,26.1842,127.7558,64.06,63,75,14.97,JP,1672119468
372,Labuan,5.2767,115.2417,84.56,65,20,2.3,MY,1672119468
373,Codrington,-38.2667,141.9667,100.54,20,13,12.19,AU,1672119469
374,Kozhanka,49.9793,29.7381,39.2,97,100,9.82,UA,1672119469
375,Libreville,0.3925,9.4537,78.67,86,51,4.43,GA,1672119470
376,Toropets,56.4978,31.6353,22.59,95,100,11.05,RU,1672119470
377,Mendoza,-32.8908,-68.8272,71.13,37,0,3.44,AR,1672119326
378,Severodvinsk,64.5635,39.8302,19.51,91,100,8.52,RU,1672119471
379,Tautira,-17.7333,-149.15,79.56,78,7,11.81,PF,1672119472
380,Ribeira Grande,38.5167,-28.7,60.78,76,70,14.0,PT,1672119472
381,Inhambane,-23.865,35.3833,78.78,78,40,5.75,MZ,1672119473
382,Jacksonville,30.3322,-81.6556,39.2,74,75,0.0,US,1672119363
383,Hūn,29.1268,15.9477,52.72,90,0,2.82,LY,1672119474
384,Berlevåg,70.8578,29.0864,30.15,80,88,25.32,NO,1672119474
385,Carlisle,40.2015,-77.1889,27.05,62,100,4.59,US,1672119438
386,Saint-Augustin,51.226,-58.6502,11.61,87,14,9.46,CA,1672119475
387,Wamba,8.9333,8.6,65.12,39,5,3.22,NG,1672119476
388,Guadalupe y Calvo,26.1,-106.9667,35.64,37,0,7.27,MX,1672119476
389,Bulgan,48.8125,103.5347,2.12,77,82,2.89,MN,1672119477
390,Gouré,13.9835,10.2704,57.15,33,0,12.1,NE,1672119477
391,Jászárokszállás,47.6424,19.9804,43.84,82,98,14.32,HU,1672119478
392,Shakawe,-18.3667,21.85,78.69,55,15,9.28,BW,1672119478
393,Arica,-18.475,-70.3042,68.23,83,0,1.14,CL,1672119362
394,Sakakah,29.9697,40.2064,47.77,73,78,13.91,SA,1672119480
395,San Pedro de Macorís,18.4616,-69.2972,71.73,91,0,6.71,DO,1672119481
396,Marabu,4.4148,114.0089,87.94,62,40,2.3,MY,1672119481
397,Qarqīn,37.4185,66.0436,52.14,36,100,12.12,AF,1672119482
398,Dauphin,51.1494,-100.0502,10.54,85,100,16.11,CA,1672119210
399,Darhan,49.4867,105.9228,-3.41,85,7,3.29,MN,1672119483
400,Narragansett,41.4501,-71.4495,29.82,69,75,4.61,US,1672119483
401,Muros,42.7762,-9.0603,50.29,84,28,3.13,ES,1672119484
402,Alofi,-19.0595,-169.9187,84.09,74,11,5.75,NU,1672119484
403,Chlórakas,34.8042,32.4083,45.48,66,0,3.44,CY,1672119485
404,Paoua,7.2427,16.4406,64.62,39,27,3.96,CF,1672119486
405,Roald,62.5833,6.1333,41.76,81,40,29.93,NO,1672119486
406,Biskamzha,53.4497,89.5272,19.96,94,99,2.08,RU,1672119487
407,Karnobat,42.65,26.9833,37.24,93,76,5.91,BG,1672119487
408,Manggar,-2.8833,108.2667,79.86,80,100,5.73,ID,1672119488
409,Ürümqi,43.801,87.6005,-1.25,85,75,2.24,CN,1672119424
410,Vila Franca do Campo,37.7167,-25.4333,52.21,75,19,2.33,PT,1672119489
411,Dubbo,-32.25,148.6167,93.33,14,0,8.05,AU,1672119490
412,Gijang,35.2442,129.2139,47.93,18,0,1.86,KR,1672119490
413,Locri,38.2414,16.2623,58.32,62,0,9.95,IT,1672119491
414,Chengde,40.9725,117.9361,23.65,30,17,18.32,CN,1672119492
415,College,64.8569,-147.8028,-0.08,68,100,6.91,US,1672119222
416,Nadterechnoye,43.6227,45.3397,29.28,89,90,1.77,RU,1672119493
417,İskele,39.484,26.9278,33.89,93,0,4.61,TR,1672119494
418,Airai,-8.9266,125.4092,69.4,76,100,3.22,TL,1672119495
419,Warmbad,-28.45,18.7333,73.81,29,0,3.71,NA,1672119496
420,Bezhta,42.1338,46.1283,25.92,61,47,4.97,RU,1672119497
421,Wellsford,-36.2833,174.5167,73.09,81,81,2.08,NZ,1672119498
422,Mortka,59.3322,66.0214,3.25,95,6,5.73,RU,1672119498
423,Beloha,-25.1667,45.05,84.27,60,54,6.04,MG,1672119499
424,Semīrom,31.4167,51.5667,29.34,67,18,2.77,IR,1672119500
425,Huilong,31.8111,121.655,46.53,56,10,7.61,CN,1672119500
426,Mt. Pleasant,32.7941,-79.8626,36.99,83,0,4.61,US,1672119425
427,Palembang,-2.9167,104.7458,83.08,69,100,6.4,ID,1672119502
428,Charters Towers,-20.1,146.2667,83.7,49,99,12.39,AU,1672119503
429,Olean,42.0776,-78.4297,18.28,88,97,8.23,US,1672119504
430,Wewak,-3.5534,143.6268,81.46,80,99,9.06,PG,1672119505
431,Reedley,36.5963,-119.4504,65.88,100,20,3.44,US,1672119507
432,Abu Kamal,34.4506,40.9171,53.6,67,100,7.18,SY,1672119507
433,Kaeo,-35.1,173.7833,73.33,75,66,4.74,NZ,1672119508
434,Aktau,43.65,51.2,23.58,56,58,7.65,KZ,1672119269
435,Tura,25.5198,90.2201,71.78,50,54,5.97,IN,1672119509
436,Ust-Kuyga,70.0167,135.6,-23.42,99,99,7.63,RU,1672119510
437,Aden,12.7794,45.0367,77.52,73,57,9.13,YE,1672119510
438,Salmo,49.1999,-117.2689,40.08,88,100,3.13,CA,1672119511
439,The Valley,18.217,-63.0578,79.11,78,7,22.62,AI,1672119511
440,Yamada,39.4667,141.95,45.1,57,35,3.29,JP,1672119512
441,Ballina,-28.8667,153.5667,79.79,69,22,10.98,AU,1672119512
442,Ørje,59.4802,11.6602,34.14,76,49,10.4,NO,1672119514
443,Sawākin,19.1059,37.3321,71.67,43,1,12.55,SD,1672119514
444,Dondo,-19.6094,34.7431,80.11,62,32,0.63,MZ,1672119515
445,Pisco,-13.7,-76.2167,69.85,88,0,5.75,PE,1672119516
446,Fairbanks,64.8378,-147.7164,-0.06,68,100,6.91,US,1672119333
447,Klaksvík,62.2266,-6.589,29.32,65,98,18.88,FO,1672119516
448,Buritis,-15.6178,-46.4233,67.87,98,100,2.1,BR,1672119517
449,Mbanza-Ngungu,-5.25,14.8667,67.57,91,90,1.36,CD,1672119517
450,Bellingham,48.7595,-122.4882,47.21,94,100,13.0,US,1672119518
451,Medina del Campo,41.3124,-4.9141,46.0,89,12,4.94,ES,1672119518
452,Port Lincoln,-34.7333,135.8667,79.34,54,69,4.92,AU,1672119519
453,Cocal,-28.6167,-49.35,65.93,99,100,1.43,BR,1672119519
454,Shima,24.4478,117.8111,64.42,49,0,6.87,CN,1672119520
455,Sørland,67.667,12.6934,40.86,75,100,9.51,NO,1672119520
456,Malanje,-9.5402,16.341,64.29,94,100,2.73,AO,1672119521
457,Savannah Bight,16.45,-85.85,76.98,78,19,16.4,HN,1672119522
458,Arkhangelsk,64.5401,40.5433,19.51,93,100,4.47,RU,1672119522
459,Broome,42.2506,-75.833,21.97,78,100,8.05,US,1672119523
460,Margate,51.3813,1.3862,40.69,86,14,14.81,GB,1672119524
461,Lanas,12.0495,121.9185,79.12,70,100,21.47,PH,1672119524
462,Havøysund,70.9963,24.6622,34.03,76,94,22.57,NO,1672119525
463,Coos Bay,43.3665,-124.2179,59.99,90,100,18.41,US,1672119263
464,Cedar Rapids,42.0083,-91.6441,0.01,88,0,3.0,US,1672119389
465,Sai Buri,6.7013,101.6168,85.71,62,100,6.15,TH,1672119526
466,Sumbe,-11.2061,13.8437,77.32,82,95,3.85,AO,1672119526
467,Xiongyue,40.1774,122.1228,24.89,44,4,10.25,CN,1672119527
468,Cairns,-16.9167,145.7667,81.1,91,100,6.91,AU,1672119527
469,Kérouané,9.2667,-9.0167,65.23,34,24,3.33,GN,1672119528
470,Port-Gentil,-0.7193,8.7815,78.76,94,40,2.3,GA,1672119528
471,Evensk,61.95,159.2333,9.64,66,93,13.42,RU,1672119529
472,La Rochelle,46.1667,-1.15,42.87,100,100,6.91,FR,1672119529
473,Bonavista,48.6499,-53.1147,29.25,64,7,21.52,CA,1672119530
474,Sola,-13.8833,167.55,82.22,74,78,9.04,VU,1672119530
475,Chapais,49.7834,-74.8492,2.98,98,100,6.49,CA,1672119531
476,Isangel,-19.55,169.2667,82.67,72,100,7.02,VU,1672119531
477,Solnechnyy,50.7214,136.6319,11.68,98,62,3.42,RU,1672119532
478,Dakar,14.6937,-17.4441,67.08,68,76,14.88,SN,1672119532
479,Choctaw,35.4976,-97.2689,21.7,72,0,5.75,US,1672119446
480,Maurānwān,26.4333,80.8833,48.24,31,0,7.94,IN,1672119533
481,Gīdolē,5.65,37.3667,66.88,40,97,3.29,ET,1672119534
482,Aklavik,68.2191,-135.0107,-17.82,98,100,9.84,CA,1672119534
483,Marzuq,14.4,46.4667,71.65,48,6,1.99,YE,1672119535
484,Leningradskiy,69.3833,178.4167,-15.66,97,44,4.63,RU,1672119535
485,Wah,33.798,72.6957,58.14,21,43,6.67,PK,1672119536
486,Concarneau,47.875,-3.9225,47.82,76,95,9.13,FR,1672119537
487,Nueve de Julio,-35.4444,-60.8831,63.97,66,4,1.01,AR,1672119460
488,Hailey,43.5196,-114.3153,33.66,84,0,6.91,US,1672119538
489,Adrar,20.5022,-10.0711,58.78,27,1,15.77,MR,1672119538
490,Arrecife,28.963,-13.5477,71.58,56,100,26.46,ES,1672119539
491,Romny,50.751,33.4747,32.49,98,100,14.61,UA,1672119540
492,Setermoen,68.861,18.3486,19.36,88,99,9.15,NO,1672119541
493,Obihiro,42.9172,143.2044,33.21,85,10,1.36,JP,1672119541
494,Atar,20.5169,-13.0499,60.01,27,4,3.67,MR,1672119542
495,Pochutla,15.7432,-96.4661,72.82,62,32,3.65,MX,1672119543
496,Lanzhou,36.0564,103.7922,27.3,31,79,2.35,CN,1672119543
497,Wajima,37.4,136.9,39.88,100,75,3.44,JP,1672119493
498,Meadow Lake,34.8014,-106.5436,44.13,55,99,4.85,US,1672119544
499,Kéfalos,36.7453,26.9589,57.42,62,0,13.58,GR,1672119545
500,Quelimane,-17.8786,36.8883,80.55,89,40,10.36,MZ,1672119545
501,Necochea,-38.5473,-58.7368,61.68,56,1,15.03,AR,1672119428
502,Staroye Drozhzhanoye,54.7266,47.5677,1.4,100,100,4.25,RU,1672119546
503,Nador,35.174,-2.9287,53.85,100,40,2.3,MA,1672119547
504,Lermontovka,47.1453,134.3383,13.17,91,98,2.04,RU,1672119547
505,Hirara,24.8,125.2833,68.27,56,40,13.8,JP,1672119548
506,Itarema,-2.9248,-39.9167,78.22,76,56,12.39,BR,1672119320
507,Mercedes,-34.6515,-59.4307,64.04,55,0,6.76,AR,1672119549
508,Morant Bay,17.8815,-76.4093,71.71,81,11,9.01,JM,1672119549
509,Gizo Government Station,-8.103,156.8419,84.42,72,100,11.5,SB,1672119551
510,Kununurra,-15.7667,128.7333,91.38,62,40,12.66,AU,1672119552
511,Pandan Niog,6.2282,120.5631,80.22,82,99,16.84,PH,1672119552
512,Priargunsk,50.3691,119.1012,0.72,95,100,2.8,RU,1672119553
513,Okha,53.5739,142.9478,0.14,87,27,15.1,RU,1672119554
514,Salinas,36.6777,-121.6555,56.5,84,100,9.22,US,1672119368
515,Mehamn,71.0357,27.8492,30.11,86,90,13.8,NO,1672119555
516,Jacareacanga,-6.2222,-57.7528,71.71,99,99,1.5,BR,1672119555
517,Aquidauana,-20.4711,-55.7872,75.07,72,21,2.1,BR,1672119424
518,Río Gallegos,-51.6226,-69.2181,41.05,70,0,25.32,AR,1672119313
519,Ascension,30.2169,-90.9001,47.05,69,0,0.0,US,1672119557
520,Sabha,27.0377,14.4283,52.68,79,0,7.29,LY,1672119558
521,Riviere-au-Renard,48.9957,-64.3971,14.29,81,58,6.38,CA,1672119559
522,Buraidah,26.326,43.975,46.85,46,36,18.14,SA,1672119560
523,Belfast,54.5833,-5.9333,37.99,92,75,9.22,GB,1672119560
524,Pasān,22.85,82.2,77.4,41,2,5.66,IN,1672119561
525,Aromashevo,56.8602,68.6375,19.18,94,100,4.43,RU,1672119562
526,Novikovo,51.1537,37.8879,34.0,99,100,9.17,RU,1672119563
527,Naze,28.3667,129.4833,58.12,67,71,9.86,JP,1672119563
528,Boqueirão,-7.5,-36.1333,71.15,91,64,5.5,BR,1672119564
529,Matara,5.9485,80.5353,83.19,69,14,7.16,LK,1672119564
530,Viedma,-40.8135,-62.9967,68.76,57,53,23.82,AR,1672119565
531,Marsh Harbour,26.5412,-77.0636,69.35,89,100,18.66,BS,1672119335
532,Otradnoye,59.7775,30.8181,21.25,90,68,11.92,RU,1672119567
533,La Santisima Trinidad,-14.8333,-64.9,72.27,97,96,3.0,BO,1672119568
534,Taoudenni,22.6783,-3.9836,60.15,29,0,10.31,ML,1672119569
535,Clarence Town,-32.5833,151.7833,85.6,36,0,11.48,AU,1672119569
536,Ambatondrazaka,-17.8333,48.4167,74.7,62,68,4.14,MG,1672119569
537,Bijie,27.3125,105.2942,33.3,94,100,5.1,CN,1672119570
538,Rawson,-43.3002,-65.1023,59.94,71,94,16.75,AR,1672119570
539,Katherine,-14.4667,132.2667,93.52,55,40,4.61,AU,1672119571
540,Khulo,41.644,42.3129,37.98,97,100,2.93,GE,1672119572
541,Saint-François,46.4154,3.9054,39.67,100,75,3.44,FR,1672119339
542,Bela,25.9333,81.9833,67.05,26,0,9.91,IN,1672119573
543,Deputatsky,69.3,139.9,-21.05,92,94,4.59,RU,1672119574
544,Teya,60.3778,92.6267,13.8,90,100,9.22,RU,1672119574
545,Mackay,-21.15,149.2,83.68,74,26,24.38,AU,1672119575
546,Asău,46.4333,26.4,29.32,91,100,6.49,RO,1672119575
547,Cururupu,-1.8283,-44.8683,75.2,89,100,2.98,BR,1672119576
548,Karasjok,69.4719,25.5112,24.1,89,100,14.72,NO,1672119576
549,Anadyr,64.75,177.4833,10.9,72,5,31.32,RU,1672119577
550,Oodweyne,9.4092,45.064,71.2,58,56,5.17,SO,1672119577
551,Pori,61.4833,21.7833,23.07,86,100,12.66,FI,1672119578
552,Beringovskiy,63.05,179.3167,6.62,87,100,19.28,RU,1672119578
553,Luanda,-8.8368,13.2343,77.0,83,40,1.14,AO,1672119579
554,Praia da Vitória,38.7333,-27.0667,55.76,82,0,11.43,PT,1672119580
555,Okahandja,-21.9833,16.9167,71.04,29,4,2.57,NA,1672119581
556,Mawlaik,23.6333,94.4167,79.86,37,8,1.45,MM,1672119582
557,Mopti,14.6667,-4.0,66.58,26,65,9.84,ML,1672119582
558,Sandpoint,48.2766,-116.5533,38.44,94,100,4.61,US,1672119536
559,Kirakira,-10.4544,161.9205,82.72,75,99,5.75,SB,1672119583
560,Vostok,46.4856,135.8833,11.71,93,94,3.15,RU,1672119584
561,Comodoro Rivadavia,-45.8667,-67.5,48.06,49,0,2.3,AR,1672119584
562,Porto Velho,-8.7619,-63.9039,73.45,94,0,0.0,BR,1672119585
563,Tāybād,34.74,60.7756,46.54,68,8,8.08,IR,1672119586
564,Mount Gambier,-37.8333,140.7667,94.3,23,54,6.4,AU,1672119586
565,Singaparna,-7.3515,108.111,80.28,72,100,1.14,ID,1672119586
566,Erechim,-27.6342,-52.2739,59.56,96,1,3.42,BR,1672119587
567,Bairnsdale,-37.8333,147.6167,84.06,58,6,5.01,AU,1672119588
568,Hilton Head,32.2163,-80.7526,36.99,78,0,1.01,US,1672119517
569,Faya,18.3851,42.4509,53.71,73,33,5.26,SA,1672119589
570,Karakol,42.4907,78.3936,24.76,60,7,0.85,KG,1672119589
571,High Level,58.5169,-117.136,-11.09,84,100,4.61,CA,1672119590
572,Kampot,10.6167,104.1833,86.05,49,73,9.48,KH,1672119590
573,Phonhong,18.5007,102.4166,79.27,45,12,2.71,LA,1672119591
574,Sambava,-14.2667,50.1667,80.71,69,5,8.63,MG,1672119591
575,Arroyo de la Encomienda,41.6096,-4.7969,47.59,91,75,5.75,ES,1672119592
576,Alta Floresta,-9.8756,-56.0861,70.79,99,100,3.42,BR,1672119592
577,Upington,-28.4478,21.2561,71.98,33,0,3.44,ZA,1672119593
578,Vanimo,-2.6741,141.3028,80.89,85,100,7.25,PG,1672119593
579,Tainan City,22.9908,120.2133,76.78,33,20,3.44,TW,1672119594
580,Linxia Chengguanzhen,35.6003,103.2064,25.93,34,95,3.27,CN,1672119594
581,Mnogovershinnyy,53.9353,139.9242,-2.96,89,14,4.29,RU,1672119595
